{
"type": "FeatureCollection",
"name": "Covid",
"crs": { "type": "name", "properties": { "name": "urn:ogc:def:crs:OGC:1.3:CRS84" } },
"features": [
{ "type": "Feature", "properties": { "FID_": 0, "Id": 12, "Nom": "Dakhla-Oued Ed Daha", "1": 0, "2": 22, "3": 44 , "Lon": -14.35745899, "Lat": 22.87426382 }, "geometry": { "type": "Point", "coordinates": [ -14.35745899, 22.87426382 ] } },
{ "type": "Feature", "properties": { "FID_": 1, "Id": 11, "Nom": "Laâyoune-Sakia El Hamra​​", "1": 0, "2": 56, "3": 56, "Lon": -11.98007363, "Lat": 26.31166373 }, "geometry": { "type": "Point", "coordinates": [ -11.98007363, 26.31166373 ] } },
{ "type": "Feature", "properties": { "FID_": 2, "Id": 10, "Nom": "Guelmim Oued Noun​​", "1": 0, "2": 52, "3": 52, "Lon": -9.927172874, "Lat": 28.31018651 }, "geometry": { "type": "Point", "coordinates": [ -9.927172874, 28.31018651 ] } },
{ "type": "Feature", "properties": { "FID_": 3, "Id": 9, "Nom": "Souss-Massa", "1": 250, "2": 287, "3": 387, "Lon": -8.354625122, "Lat": 29.9153702 }, "geometry": { "type": "Point", "coordinates": [ -8.354625122, 29.9153702 ] } },
{ "type": "Feature", "properties": { "FID_": 4, "Id": 8, "Nom": "Darâa-Tafilalet", "1": 48, "2": 127, "3": 296, "Lon": -5.36896652, "Lat": 31.19112059 }, "geometry": { "type": "Point", "coordinates": [ -5.36896652, 31.19112059 ] } },
{ "type": "Feature", "properties": { "FID_": 5, "Id": 2, "Nom": "Oriental", "1": 164, "2": 186, "3": 221, "Lon": -2.655703455, "Lat": 33.49555643 }, "geometry": { "type": "Point", "coordinates": [ -2.655703455, 33.49555643 ] } },
{ "type": "Feature", "properties": { "FID_": 6, "Id": 1, "Nom": "Tanger Tetouan Al Hoceima", "1": 191, "2": 222, "3": 295, "Lon": -5.169087576, "Lat": 35.14586645 }, "geometry": { "type": "Point", "coordinates": [ -5.169087576, 35.14586645 ] } },
{ "type": "Feature", "properties": { "FID_": 7, "Id": 3, "Nom": "Fès meknes​​", "1": 375, "2": 247, "3": 173, "Lon": -4.49417143, "Lat": 33.75172295 }, "geometry": { "type": "Point", "coordinates": [ -4.49417143, 33.75172295 ] } },
{ "type": "Feature", "properties": { "FID_": 8, "Id": 4, "Nom": "Rabat Salé Kenitra", "1": 136, "2": 349, "3": 513, "Lon": -6.217029967, "Lat": 34.07152153 }, "geometry": { "type": "Point", "coordinates": [ -6.217029967, 34.07152153 ] } },
{ "type": "Feature", "properties": { "FID_": 9, "Id": 5, "Nom": "Beni Mellal-Khénifra", "1": 68, "2": 236, "3": 644, "Lon": -6.305261838, "Lat": 32.46789263 }, "geometry": { "type": "Point", "coordinates": [ -6.305261838, 32.46789263 ] } },
{ "type": "Feature", "properties": { "FID_": 10, "Id": 6, "Nom": "Casablanca-Settat", "1": 588, "2": 668, "3": 581, "Lon": -7.786903979, "Lat": 33.00378916 }, "geometry": { "type": "Point", "coordinates": [ -7.786903979, 33.00378916 ] } },
{ "type": "Feature", "properties": { "FID_": 11, "Id": 7, "Nom": "Marrakech Safi​​", "1": 535, "2": 495, "3": 505, "Lon": -8.458592198, "Lat": 31.70031647 }, "geometry": { "type": "Point", "coordinates": [ -8.458592198, 31.70031647 ] } }
]
}
